步道名稱	路標指示	緯度	經度	海拔（約）
塔塔加登山口(玉山)	start	23.475793	120.90017
玉山步道2k	comm	23.471086	120.91269
玉山步道2.7k-玉山前峰步道岔路口	comm	23.470603	120.91801
玉山步道-距主峰1.4K	comm	23.467393	120.95425
排雲山莊	cabin	23.466506	120.94971
玉山主峰	peak	23.470018	120.95727